$GPGGA,093615.00,2258.9241721,N,11321.6923523,E,5,11,3.3,51.6823,M,-6.0481,M,2.0,0000*6C
$GPGGA,093616.00,2258.9241544,N,11321.6923730,E,5,11,3.3,51.6520,M,-6.0481,M,2.0,0000*60
$GPGGA,093617.00,2258.9241546,N,11321.6923730,E,5,11,3.3,51.6522,M,-6.0481,M,2.0,0000*61
$GPGGA,093618.00,2258.9241563,N,11321.6923745,E,5,11,3.3,51.6487,M,-6.0481,M,2.0,0000*65
$GPGGA,093619.00,2258.9241449,N,11321.6923909,E,5,11,3.3,51.6196,M,-6.0481,M,2.0,0000*6E
$GPGGA,093620.00,2258.9241392,N,11321.6923972,E,5,11,3.3,51.6105,M,-6.0481,M,2.0,0000*63
$GPGGA,093621.00,2258.9241279,N,11321.6924024,E,5,12,3.1,51.6061,M,-6.0481,M,2.0,0000*69
$GPGGA,093622.00,2258.9241138,N,11321.6924138,E,5,12,3.1,51.6068,M,-6.0481,M,2.0,0000*69
$GPGGA,093623.00,2258.9241140,N,11321.6924134,E,5,12,3.1,51.6080,M,-6.0481,M,2.0,0000*6D
$GPGGA,093624.00,2258.9241149,N,11321.6924164,E,5,12,3.1,51.6023,M,-6.0481,M,2.0,0000*6F
$GPGGA,093625.00,2258.9241116,N,11321.6924166,E,5,11,3.2,51.5984,M,-6.0481,M,2.0,0000*61
$GPGGA,093626.00,2258.9241128,N,11321.6924091,E,5,11,3.2,51.6201,M,-6.0481,M,2.0,0000*63
$GPGGA,093627.00,2258.9241110,N,11321.6923980,E,5,11,3.2,51.6533,M,-6.0481,M,2.0,0000*61
$GPGGA,093628.00,2258.9241124,N,11321.6923941,E,5,11,3.2,51.6602,M,-6.0481,M,2.0,0000*65
$GPGGA,093629.00,2258.9241206,N,11321.6923929,E,5,11,3.2,51.6617,M,-6.0481,M,2.0,0000*6D
$GPGGA,093630.00,2258.9241280,N,11321.6923860,E,5,11,3.2,51.6559,M,-6.0481,M,2.0,0000*6E
$GPGGA,093631.00,2258.9241267,N,11321.6923888,E,5,11,3.2,51.6588,M,-6.0481,M,2.0,0000*6C
$GPGGA,093632.00,2258.9241202,N,11321.6923947,E,5,11,3.2,51.6584,M,-6.0481,M,2.0,0000*62
$GPGGA,093633.00,2258.9241239,N,11321.6923857,E,5,11,3.2,51.6732,M,-6.0481,M,2.0,0000*64
$GPGGA,093634.00,2258.9241280,N,11321.6923812,E,5,11,3.2,51.6814,M,-6.0481,M,2.0,0000*6B
$GPGGA,093635.00,2258.9241285,N,11321.6923934,E,5,11,3.2,51.6485,M,-6.0481,M,2.0,0000*6E
$GPGGA,093636.00,2258.9241433,N,11321.6923800,E,5,12,3.1,51.6405,M,-6.0481,M,2.0,0000*68
$GPGGA,093637.00,2258.9241591,N,11321.6923646,E,5,12,3.1,51.6365,M,-6.0481,M,2.0,0000*6D
$GPGGA,093638.00,2258.9241713,N,11321.6923511,E,5,11,3.3,51.6534,M,-6.0481,M,2.0,0000*68
$GPGGA,093639.00,2258.9230665,N,11321.6936017,E,5,10,3.3,48.1969,M,-6.0480,M,2.0,0000*63
$GPGGA,093640.00,2258.9232417,N,11321.6932734,E,5,10,3.3,48.6033,M,-6.0480,M,2.0,0000*6B
$GPGGA,093641.00,2258.9235945,N,11321.6926329,E,5,10,3.3,49.5360,M,-6.0481,M,2.0,0000*6C
$GPGGA,093642.00,2258.9241666,N,11321.6917287,E,5,12,3.0,50.4498,M,-6.0482,M,2.0,0000*6E
$GPGGA,093643.00,2258.9244138,N,11321.6912108,E,5,12,3.0,51.5953,M,-6.0482,M,2.0,0000*6D
$GPGGA,093644.00,2258.9245202,N,11321.6909296,E,5,12,3.0,52.7389,M,-6.0482,M,2.0,0000*63
$GPGGA,093645.00,2258.9244845,N,11321.6908312,E,5,12,3.0,53.7246,M,-6.0482,M,2.0,0000*65
$GPGGA,093646.00,2258.9244487,N,11321.6907662,E,5,12,3.0,54.3072,M,-6.0482,M,3.0,0000*6E
$GPGGA,093647.00,2258.9244160,N,11321.6907759,E,5,11,3.1,54.4895,M,-6.0482,M,2.0,0000*6F
$GPGGA,093648.00,2258.9244083,N,11321.6908125,E,5,12,3.0,54.5280,M,-6.0482,M,2.0,0000*63
$GPGGA,093649.00,2258.9244018,N,11321.6907672,E,5,12,3.0,54.7284,M,-6.0482,M,2.0,0000*6C
$GPGGA,093650.00,2258.9242752,N,11321.6908919,E,5,12,3.0,54.6285,M,-6.0482,M,2.0,0000*66
$GPGGA,093651.00,2258.9242213,N,11321.6909684,E,5,12,3.0,54.5852,M,-6.0482,M,2.0,0000*6E
$GPGGA,093652.00,2258.9242305,N,11321.6910416,E,5,11,3.1,54.4154,M,-6.0482,M,2.0,0000*66
$GPGGA,093653.00,2258.9242882,N,11321.6910674,E,5,12,3.0,54.2970,M,-6.0482,M,2.0,0000*6F
$GPGGA,093654.00,2258.9243872,N,11321.6910134,E,5,12,3.0,54.3276,M,-6.0482,M,2.0,0000*69
$GPGGA,093655.00,2258.9244738,N,11321.6910369,E,5,12,3.0,54.1553,M,-6.0482,M,2.0,0000*66
$GPGGA,093656.00,2258.9245387,N,11321.6910566,E,5,12,3.0,53.9955,M,-6.0482,M,2.0,0000*68
$GPGGA,093657.00,2258.9244784,N,11321.6912300,E,5,12,3.0,53.6233,M,-6.0482,M,2.0,0000*6F
$GPGGA,093658.00,2258.9243997,N,11321.6914164,E,5,12,3.0,53.2500,M,-6.0482,M,2.0,0000*6E
$GPGGA,093659.00,2258.9243192,N,11321.6915655,E,5,12,3.0,52.9410,M,-6.0482,M,2.0,0000*6C
$GPGGA,093700.00,2258.9242531,N,11321.6916715,E,5,12,3.0,52.6720,M,-6.0482,M,2.0,0000*64
$GPGGA,093701.00,2258.9242332,N,11321.6917132,E,5,12,3.0,52.4843,M,-6.0481,M,2.0,0000*69
$GPGGA,093702.00,2258.9242653,N,11321.6916939,E,5,12,3.0,52.3955,M,-6.0482,M,2.0,0000*68
$GPGGA,093703.00,2258.9243388,N,11321.6916069,E,5,12,3.0,52.4576,M,-6.0482,M,2.0,0000*6D
$GPGGA,093704.00,2258.9244276,N,11321.6915026,E,5,12,3.0,52.5491,M,-6.0482,M,2.0,0000*6C
$GPGGA,093705.00,2258.9245158,N,11321.6914323,E,5,12,3.0,52.5482,M,-6.0482,M,2.0,0000*66
$GPGGA,093706.00,2258.9246121,N,11321.6913564,E,5,12,3.0,52.5427,M,-6.0482,M,2.0,0000*65
$GPGGA,093707.00,2258.9247067,N,11321.6913086,E,5,12,3.0,52.4724,M,-6.0482,M,2.0,0000*6E
$GPGGA,093708.00,2258.9247974,N,11321.6912316,E,5,12,3.0,52.3732,M,-6.0482,M,2.0,0000*61
$GPGGA,093709.00,2258.9248459,N,11321.6912028,E,5,11,3.3,52.1991,M,-6.0482,M,2.0,0000*66
$GPGGA,093710.00,2258.9248724,N,11321.6911880,E,5,11,3.3,52.0428,M,-6.0482,M,2.0,0000*60
$GPGGA,093711.00,2258.9249292,N,11321.6911231,E,5,11,3.3,52.0376,M,-6.0482,M,2.0,0000*64
$GPGGA,093712.00,2258.9249798,N,11321.6910575,E,5,10,3.3,52.0715,M,-6.0482,M,2.0,0000*6E
$GPGGA,093713.00,2258.9250481,N,11321.6909856,E,5,11,3.3,52.0505,M,-6.0482,M,2.0,0000*6A
$GPGGA,093714.00,2258.9250843,N,11321.6909639,E,5,10,3.3,51.9632,M,-6.0482,M,2.0,0000*64
$GPGGA,093715.00,2258.9250944,N,11321.6909229,E,5,09,3.4,52.0617,M,-6.0482,M,2.0,0000*64
$GPGGA,093716.00,2258.9251080,N,11321.6908713,E,5,09,3.4,52.2181,M,-6.0482,M,2.0,0000*60
$GPGGA,093717.00,2258.9251480,N,11321.6907989,E,5,11,3.0,52.3544,M,-6.0482,M,2.0,0000*66
$GPGGA,093718.00,2258.9251647,N,11321.6907638,E,5,10,3.3,52.4122,M,-6.0482,M,2.0,0000*64
$GPGGA,093719.00,2258.9224097,N,11321.6935525,E,5,09,3.3,51.5452,M,-6.0480,M,2.0,0000*68
$GPGGA,093720.00,2258.9225414,N,11321.6933670,E,5,08,3.5,51.5614,M,-6.0480,M,2.0,0000*6E
$GPGGA,093721.00,2258.9227039,N,11321.6931831,E,5,09,3.3,51.6851,M,-6.0480,M,2.0,0000*64
$GPGGA,093722.00,2258.9228528,N,11321.6927523,E,5,11,3.2,53.0150,M,-6.0480,M,2.0,0000*60
$GPGGA,093723.00,2258.9229749,N,11321.6925239,E,5,11,3.2,53.6229,M,-6.0481,M,2.0,0000*61
$GPGGA,093724.00,2258.9229584,N,11321.6924755,E,5,11,3.2,53.6892,M,-6.0480,M,2.0,0000*60
$GPGGA,093725.00,2258.9229418,N,11321.6924207,E,5,11,3.2,53.8478,M,-6.0481,M,2.0,0000*60
$GPGGA,093726.00,2258.9228047,N,11321.6925345,E,5,11,3.2,53.7602,M,-6.0480,M,2.0,0000*6B
$GPGGA,093727.00,2258.9226094,N,11321.6928077,E,5,11,3.2,53.4869,M,-6.0480,M,2.0,0000*65
$GPGGA,093728.00,2258.9225556,N,11321.6930096,E,5,11,3.2,53.2994,M,-6.0480,M,2.0,0000*61
$GPGGA,093729.00,2258.9225355,N,11321.6931756,E,5,11,3.2,53.2236,M,-6.0480,M,2.0,0000*6C
$GPGGA,093730.00,2258.9224850,N,11321.6933092,E,5,11,3.2,53.2312,M,-6.0480,M,2.0,0000*61
$GPGGA,093731.00,2258.9223634,N,11321.6934882,E,5,10,3.2,53.1495,M,-6.0480,M,2.0,0000*6F
$GPGGA,093732.00,2258.9222279,N,11321.6935765,E,5,10,3.2,53.3220,M,-6.0479,M,2.0,0000*6B
$GPGGA,093733.00,2258.9221474,N,11321.6936294,E,5,10,3.2,53.4460,M,-6.0479,M,2.0,0000*6F
$GPGGA,093734.00,2258.9220356,N,11321.6937835,E,5,11,3.2,53.3265,M,-6.0479,M,2.0,0000*6B
$GPGGA,093735.00,2258.9219315,N,11321.6939357,E,5,11,3.2,53.1442,M,-6.0479,M,2.0,0000*67
$GPGGA,093736.00,2258.9219249,N,11321.6939678,E,5,11,3.2,53.1628,M,-6.0479,M,2.0,0000*6A
$GPGGA,093737.00,2258.9219799,N,11321.6938928,E,5,11,3.2,53.3470,M,-6.0479,M,2.0,0000*65
$GPGGA,093738.00,2258.9220533,N,11321.6938072,E,5,11,3.2,53.4702,M,-6.0479,M,2.0,0000*65
$GPGGA,093739.00,2258.9221337,N,11321.6937136,E,5,11,3.2,53.5756,M,-6.0479,M,2.0,0000*69
$GPGGA,093740.00,2258.9221993,N,11321.6936016,E,5,11,3.2,53.8040,M,-6.0479,M,2.0,0000*6C
$GPGGA,093741.00,2258.9222417,N,11321.6934864,E,5,11,3.2,54.0340,M,-6.0480,M,2.0,0000*6A
$GPGGA,093742.00,2258.9222959,N,11321.6933659,E,5,11,3.2,54.2566,M,-6.0480,M,2.0,0000*69
$GPGGA,093743.00,2258.9223743,N,11321.6932286,E,5,11,3.2,54.4866,M,-6.0480,M,2.0,0000*60
$GPGGA,093744.00,2258.9224221,N,11321.6931160,E,5,11,3.2,54.7348,M,-6.0480,M,2.0,0000*6D
$GPGGA,093745.00,2258.9224342,N,11321.6930296,E,5,10,3.2,54.9450,M,-6.0480,M,2.0,0000*62
$GPGGA,093746.00,2258.9224914,N,11321.6929274,E,5,11,3.2,55.1333,M,-6.0480,M,2.0,0000*66
$GPGGA,093747.00,2258.9225378,N,11321.6928214,E,5,11,3.2,55.2877,M,-6.0480,M,2.0,0000*69
$GPGGA,093748.00,2258.9225600,N,11321.6927475,E,5,11,3.2,55.3539,M,-6.0480,M,2.0,0000*64
$GPGGA,093749.00,2258.9226220,N,11321.6926335,E,5,11,3.2,55.4792,M,-6.0480,M,2.0,0000*66
$GPGGA,093750.00,2258.9226777,N,11321.6925217,E,5,10,3.2,55.6253,M,-6.0480,M,2.0,0000*60
$GPGGA,093751.00,2258.9227721,N,11321.6923890,E,5,11,3.2,55.7830,M,-6.0481,M,2.0,0000*6E
$GPGGA,093752.00,2258.9228462,N,11321.6922927,E,5,10,3.2,55.8727,M,-6.0481,M,2.0,0000*6D
$GPGGA,093753.00,2258.9229031,N,11321.6922321,E,5,10,3.2,55.9044,M,-6.0481,M,2.0,0000*60
$GPGGA,093754.00,2258.9229022,N,11321.6922581,E,5,10,3.2,55.8577,M,-6.0481,M,2.0,0000*6D
$GPGGA,093755.00,2258.9228871,N,11321.6923037,E,5,10,3.2,55.7968,M,-6.0481,M,2.0,0000*67
$GPGGA,093756.00,2258.9228599,N,11321.6923522,E,5,10,3.2,55.7357,M,-6.0481,M,2.0,0000*68
$GPGGA,093757.00,2258.9228121,N,11321.6924291,E,5,08,3.3,55.6318,M,-6.0480,M,2.0,0000*65
$GPGGA,093758.00,2258.9227887,N,11321.6924744,E,5,07,3.3,55.6204,M,-6.0480,M,2.0,0000*6E
$GPGGA,093759.00,2258.9227819,N,11321.6925130,E,5,07,3.3,55.5723,M,-6.0480,M,2.0,0000*6F
$GPGGA,093800.00,2258.9224908,N,11321.6928696,E,5,08,3.2,55.3702,M,-6.0480,M,2.0,0000*63
$GPGGA,093801.00,2258.9223176,N,11321.6931213,E,5,08,3.5,55.0984,M,-6.0480,M,2.0,0000*61
$GPGGA,093802.00,2258.9240860,N,11321.6927447,E,2,14,1.1,52.2350,M,-6.0481,M,2.0,0000*62
$GPGGA,093803.00,2258.9243279,N,11321.6927051,E,2,13,1.2,51.7765,M,-6.0481,M,2.0,0000*61
$GPGGA,093804.00,2258.9243113,N,11321.6927251,E,2,13,1.2,51.7192,M,-6.0481,M,2.0,0000*65
$GPGGA,093805.00,2258.9226860,N,11321.6942260,E,5,08,3.3,51.1895,M,-6.0479,M,2.0,0000*6A
$GPGGA,093806.00,2258.9226023,N,11321.6943437,E,5,08,3.3,51.5782,M,-6.0479,M,2.0,0000*6E
$GPGGA,093807.00,2258.9227442,N,11321.6942497,E,5,08,3.3,52.1629,M,-6.0479,M,2.0,0000*61
$GPGGA,093808.00,2258.9229628,N,11321.6940564,E,5,09,3.2,52.4752,M,-6.0479,M,2.0,0000*69
$GPGGA,093809.00,2258.9231266,N,11321.6939101,E,5,09,3.2,52.3784,M,-6.0480,M,2.0,0000*6C
$GPGGA,093810.00,2258.9232953,N,11321.6939067,E,5,09,3.2,51.5554,M,-6.0480,M,2.0,0000*61
$GPGGA,093811.00,2258.9234542,N,11321.6938915,E,5,09,3.2,50.8583,M,-6.0480,M,2.0,0000*61
$GPGGA,093812.00,2258.9237356,N,11321.6936563,E,5,09,3.2,50.8065,M,-6.0480,M,2.0,0000*6C
$GPGGA,093813.00,2258.9239760,N,11321.6933251,E,5,09,3.2,51.0949,M,-6.0480,M,2.0,0000*6F
$GPGGA,093814.00,2258.9241561,N,11321.6929496,E,5,09,3.2,51.6064,M,-6.0481,M,2.0,0000*63
$GPGGA,093815.00,2258.9243529,N,11321.6926382,E,5,09,3.2,52.1321,M,-6.0481,M,2.0,0000*67
$GPGGA,093816.00,2258.9244582,N,11321.6925753,E,5,09,3.2,52.2223,M,-6.0481,M,2.0,0000*69
$GPGGA,093817.00,2258.9245553,N,11321.6924723,E,5,09,3.2,52.4720,M,-6.0481,M,2.0,0000*63
$GPGGA,093818.00,2258.9246050,N,11321.6923645,E,5,09,3.2,52.7608,M,-6.0481,M,2.0,0000*67
$GPGGA,093819.00,2258.9245369,N,11321.6923556,E,5,09,3.2,52.9490,M,-6.0481,M,2.0,0000*60
$GPGGA,093820.00,2258.9244045,N,11321.6924454,E,5,09,3.2,53.0112,M,-6.0481,M,2.0,0000*65
$GPGGA,093821.00,2258.9242727,N,11321.6925416,E,5,09,3.2,53.0567,M,-6.0481,M,2.0,0000*60
$GPGGA,093822.00,2258.9242154,N,11321.6925864,E,5,09,3.2,53.0742,M,-6.0481,M,2.0,0000*6D
$GPGGA,093823.00,2258.9241264,N,11321.6927484,E,5,09,3.2,52.9101,M,-6.0481,M,2.0,0000*66
$GPGGA,093824.00,2258.9240069,N,11321.6928876,E,5,09,3.2,52.8508,M,-6.0481,M,2.0,0000*6D
$GPGGA,093825.00,2258.9240331,N,11321.6928767,E,5,09,3.2,52.8488,M,-6.0481,M,2.0,0000*64
$GPGGA,093826.00,2258.9240353,N,11321.6929126,E,5,09,3.2,52.7097,M,-6.0481,M,2.0,0000*64
$GPGGA,093827.00,2258.9240503,N,11321.6929124,E,5,09,3.2,52.6080,M,-6.0481,M,2.0,0000*63
$GPGGA,093828.00,2258.9241021,N,11321.6928811,E,5,09,3.2,52.4248,M,-6.0481,M,2.0,0000*62
$GPGGA,093829.00,2258.9241560,N,11321.6928240,E,5,09,3.2,52.3677,M,-6.0481,M,2.0,0000*62
$GPGGA,093830.00,2258.9242027,N,11321.6927752,E,5,09,3.2,52.3998,M,-6.0481,M,2.0,0000*68
$GPGGA,093831.00,2258.9242464,N,11321.6927474,E,5,09,3.2,52.3758,M,-6.0481,M,2.0,0000*6F
$GPGGA,093832.00,2258.9242576,N,11321.6927199,E,5,09,3.2,52.4127,M,-6.0481,M,2.0,0000*61
$GPGGA,093833.00,2258.9243135,N,11321.6926564,E,5,09,3.2,52.4847,M,-6.0481,M,2.0,0000*6A
$GPGGA,093834.00,2258.9243632,N,11321.6925854,E,5,09,3.2,52.6204,M,-6.0481,M,2.0,0000*6F
$GPGGA,093835.00,2258.9243835,N,11321.6925437,E,5,09,3.2,52.7612,M,-6.0481,M,2.0,0000*6C
$GPGGA,093836.00,2258.9244006,N,11321.6925498,E,5,09,3.2,52.7528,M,-6.0481,M,2.0,0000*6F
$GPGGA,093837.00,2258.9243746,N,11321.6925901,E,5,08,3.5,52.7361,M,-6.0481,M,2.0,0000*6A
$GPGGA,093838.00,2258.9243414,N,11321.6926009,E,5,08,3.5,52.7679,M,-6.0481,M,2.0,0000*6F
$GPGGA,093839.00,2258.9243072,N,11321.6926102,E,5,08,3.5,52.8310,M,-6.0481,M,2.0,0000*65
$GPGGA,093840.00,2258.9242678,N,11321.6926236,E,5,08,3.5,52.9089,M,-6.0481,M,2.0,0000*60
$GPGGA,093841.00,2258.9234442,N,11321.6937342,E,2,14,0.9,52.1075,M,-6.0480,M,2.0,0000*66
$GPGGA,093842.00,2258.9242409,N,11321.6926023,E,5,08,3.5,53.0189,M,-6.0481,M,2.0,0000*69
$GPGGA,093843.00,2258.9242592,N,11321.6925578,E,5,08,3.5,53.1566,M,-6.0481,M,2.0,0000*67
$GPGGA,093844.00,2258.9243056,N,11321.6925142,E,5,08,3.5,53.2504,M,-6.0481,M,2.0,0000*66
$GPGGA,093845.00,2258.9230076,N,11321.6938636,E,2,13,1.1,51.9854,M,-6.0479,M,2.0,0000*64
$GPGGA,093846.00,2258.9243389,N,11321.6924140,E,5,08,3.5,53.5633,M,-6.0481,M,2.0,0000*66
$GPGGA,093847.00,2258.9244038,N,11321.6922913,E,5,08,3.5,53.8397,M,-6.0481,M,2.0,0000*67
$GPGGA,093848.00,2258.9244663,N,11321.6921931,E,5,08,3.5,54.0095,M,-6.0481,M,2.0,0000*6D
$GPGGA,093849.00,2258.9245147,N,11321.6921085,E,5,08,3.5,54.1544,M,-6.0481,M,2.0,0000*62
$GPGGA,093850.00,2258.9245449,N,11321.6920434,E,5,08,3.5,54.3104,M,-6.0481,M,2.0,0000*6C
$GPGGA,093851.00,2258.9245788,N,11321.6919911,E,5,08,3.5,54.4434,M,-6.0481,M,2.0,0000*62
$GPGGA,093852.00,2258.9246109,N,11321.6919308,E,5,08,3.5,54.5725,M,-6.0481,M,2.0,0000*6D
$GPGGA,093853.00,2258.9246421,N,11321.6918632,E,5,08,3.5,54.6834,M,-6.0482,M,2.0,0000*61
$GPGGA,093854.00,2258.9246960,N,11321.6917791,E,5,08,3.5,54.7610,M,-6.0482,M,2.0,0000*60
$GPGGA,093855.00,2258.9227334,N,11321.6937754,E,2,13,1.1,51.9180,M,-6.0479,M,2.0,0000*6C
$GPGGA,093856.00,2258.9224443,N,11321.6941000,E,2,13,1.1,51.4182,M,-6.0479,M,2.0,0000*63
$GPGGA,093857.00,2258.9224446,N,11321.6941356,E,2,12,1.2,51.3147,M,-6.0479,M,2.0,0000*6B
$GPGGA,093858.00,2258.9248861,N,11321.6915577,E,5,08,3.5,54.7900,M,-6.0482,M,2.0,0000*64
$GPGGA,093859.00,2258.9251010,N,11321.6912753,E,5,08,3.5,55.1352,M,-6.0482,M,2.0,0000*6A
$GPGGA,093900.00,2258.9253404,N,11321.6909671,E,5,08,3.5,55.5423,M,-6.0483,M,2.0,0000*6B
$GPGGA,093901.00,2258.9229392,N,11321.6936937,E,2,12,1.3,51.7609,M,-6.0479,M,2.0,0000*6F
$GPGGA,093902.00,2258.9255691,N,11321.6907101,E,5,08,3.5,55.8310,M,-6.0483,M,2.0,0000*65
$GPGGA,093903.00,2258.9257656,N,11321.6904747,E,5,08,3.5,56.1064,M,-6.0483,M,2.0,0000*60
$GPGGA,093904.00,2258.9259826,N,11321.6901862,E,5,08,3.5,56.4850,M,-6.0483,M,2.0,0000*67
$GPGGA,093905.00,2258.9262011,N,11321.6898982,E,5,08,3.5,56.8505,M,-6.0484,M,2.0,0000*6A
$GPGGA,093906.00,2258.9264039,N,11321.6896395,E,5,08,3.5,57.1997,M,-6.0484,M,2.0,0000*68
$GPGGA,093907.00,2258.9266063,N,11321.6893838,E,5,08,3.5,57.5159,M,-6.0484,M,2.0,0000*63
$GPGGA,093908.00,2258.9268162,N,11321.6891017,E,5,08,3.5,57.8734,M,-6.0484,M,2.0,0000*65
$GPGGA,093909.00,2258.9270072,N,11321.6888471,E,5,08,3.5,58.2146,M,-6.0485,M,2.0,0000*66
$GPGGA,093910.00,2258.9271689,N,11321.6886524,E,5,08,3.5,58.4482,M,-6.0485,M,2.0,0000*69
$GPGGA,093911.00,2258.9273254,N,11321.6884795,E,5,08,3.5,58.6072,M,-6.0485,M,2.0,0000*6D
$GPGGA,093912.00,2258.9274588,N,11321.6883244,E,5,08,3.5,58.7481,M,-6.0485,M,2.0,0000*68
$GPGGA,093913.00,2258.9276096,N,11321.6881429,E,5,08,3.5,58.9225,M,-6.0485,M,2.0,0000*68
$GPGGA,093914.00,2258.9277494,N,11321.6879644,E,5,08,3.5,59.0963,M,-6.0485,M,2.0,0000*67
$GPGGA,093915.00,2258.9278717,N,11321.6878168,E,5,08,3.5,59.2428,M,-6.0486,M,2.0,0000*6A
$GPGGA,093916.00,2258.9279890,N,11321.6876600,E,5,08,3.5,59.4548,M,-6.0486,M,2.0,0000*6E
$GPGGA,093917.00,2258.9280970,N,11321.6875066,E,5,08,3.5,59.6655,M,-6.0486,M,2.0,0000*6E
$GPGGA,093918.00,2258.9282011,N,11321.6873469,E,5,08,3.5,59.9218,M,-6.0486,M,2.0,0000*62
$GPGGA,093919.00,2258.9282987,N,11321.6871927,E,5,08,3.5,60.1789,M,-6.0486,M,2.0,0000*6F
$GPGGA,093920.00,2258.9284029,N,11321.6870464,E,5,08,3.5,60.4183,M,-6.0486,M,2.0,0000*6C
$GPGGA,093921.00,2258.9240576,N,11321.6924875,E,2,13,1.1,52.3733,M,-6.0480,M,2.0,0000*60
$GPGGA,093922.00,2258.9283377,N,11321.6870817,E,5,08,3.5,60.4424,M,-6.0486,M,2.0,0000*61
$GPGGA,093923.00,2258.9240665,N,11321.6924766,E,2,13,1.1,52.3741,M,-6.0480,M,2.0,0000*6B
$GPGGA,093924.00,2258.9282228,N,11321.6871887,E,5,08,3.5,60.3423,M,-6.0486,M,2.0,0000*65
$GPGGA,093925.00,2258.9281458,N,11321.6873054,E,5,08,3.5,60.1355,M,-6.0486,M,2.0,0000*66
$GPGGA,093926.00,2258.9280111,N,11321.6874946,E,5,08,3.5,59.8414,M,-6.0486,M,2.0,0000*60
$GPGGA,093927.00,2258.9278687,N,11321.6876822,E,5,08,3.5,59.5707,M,-6.0486,M,2.0,0000*63
$GPGGA,093928.00,2258.9277298,N,11321.6878577,E,5,08,3.5,59.3150,M,-6.0485,M,2.0,0000*6B
$GPGGA,093929.00,2258.9276008,N,11321.6880303,E,5,08,3.5,59.0642,M,-6.0485,M,2.0,0000*65
$GPGGA,093930.00,2258.9274777,N,11321.6882013,E,5,08,3.5,58.8260,M,-6.0485,M,2.0,0000*6D
$GPGGA,093931.00,2258.9273404,N,11321.6883800,E,5,08,3.5,58.5762,M,-6.0485,M,2.0,0000*6D
$GPGGA,093932.00,2258.9241498,N,11321.6923515,E,2,14,0.9,52.5120,M,-6.0480,M,2.0,0000*62
$GPGGA,093933.00,2258.9271495,N,11321.6886053,E,5,08,3.5,58.2715,M,-6.0485,M,2.0,0000*69
$GPGGA,093934.00,2258.9270002,N,11321.6887893,E,5,08,3.5,58.0080,M,-6.0485,M,2.0,0000*69
$GPGGA,093935.00,2258.9268526,N,11321.6889670,E,5,08,3.5,57.7716,M,-6.0484,M,2.0,0000*6E
$GPGGA,093936.00,2258.9267223,N,11321.6891217,E,5,08,3.5,57.5342,M,-6.0484,M,2.0,0000*6B
$GPGGA,093937.00,2258.9265998,N,11321.6892689,E,5,08,3.5,57.3074,M,-6.0484,M,2.0,0000*63
$GPGGA,093938.00,2258.9264737,N,11321.6894197,E,5,08,3.5,57.1114,M,-6.0484,M,2.0,0000*6D
$GPGGA,093939.00,2258.9263435,N,11321.6895825,E,5,08,3.5,56.8941,M,-6.0484,M,2.0,0000*6B
$GPGGA,093940.00,2258.9240795,N,11321.6922498,E,2,12,1.2,52.4190,M,-6.0481,M,2.0,0000*6A
$GPGGA,093941.00,2258.9237334,N,11321.6926571,E,2,12,1.2,51.7306,M,-6.0481,M,2.0,0000*6B
$GPGGA,093942.00,2258.9237213,N,11321.6926619,E,2,13,1.1,51.6964,M,-6.0481,M,2.0,0000*6C
$GPGGA,093943.00,2258.9261723,N,11321.6898033,E,5,08,3.4,56.6070,M,-6.0484,M,2.0,0000*66
$GPGGA,093944.00,2258.9260726,N,11321.6899459,E,5,08,3.4,56.3703,M,-6.0483,M,2.0,0000*6D
$GPGGA,093945.00,2258.9259711,N,11321.6900913,E,5,08,3.4,56.1432,M,-6.0483,M,2.0,0000*63
$GPGGA,093946.00,2258.9258536,N,11321.6902364,E,5,08,3.4,55.9374,M,-6.0483,M,2.0,0000*60
$GPGGA,093947.00,2258.9240124,N,11321.6922532,E,2,12,1.2,52.3670,M,-6.0481,M,2.0,0000*6E
$GPGGA,093948.00,2258.9237177,N,11321.6925647,E,2,11,1.6,51.8084,M,-6.0481,M,2.0,0000*63
$GPGGA,093949.00,2258.9236907,N,11321.6925667,E,2,11,1.6,51.7929,M,-6.0481,M,2.0,0000*6F
$GPGGA,093950.00,2258.9236825,N,11321.6925599,E,2,13,1.0,51.8045,M,-6.0481,M,2.0,0000*6C
